[
  {
    "id": "coop-1",
    "name": "CoopFinanzas Plus",
    "logo": "ğŸ’°",
    "averageRate": 1.5,
    "city": "BogotÃ¡",
    "address": "Calle 72 #10-20",
    "coordinates": [4.6533, -74.0836],
    "minAmount": 1000000,
    "maxAmount": 50000000,
    "maxTerm": 60
  },
  {
    "id": "coop-2",
    "name": "Credicooperativa",
    "logo": "ğŸ¦",
    "averageRate": 1.8,
    "city": "MedellÃ­n",
    "address": "Carrera 43A #1-50",
    "coordinates": [6.2442, -75.5812],
    "minAmount": 2000000,
    "maxAmount": 80000000,
    "maxTerm": 72
  },
  {
    "id": "coop-3",
    "name": "AhorroSeguro",
    "logo": "ğŸ”",
    "averageRate": 1.3,
    "city": "Cali",
    "address": "Avenida 6N #28-35",
    "coordinates": [3.4516, -76.532],
    "minAmount": 1500000,
    "maxAmount": 60000000,
    "maxTerm": 48
  },
  {
    "id": "coop-4",
    "name": "Financoop",
    "logo": "ğŸ’³",
    "averageRate": 1.6,
    "city": "Barranquilla",
    "address": "Calle 85 #53-14",
    "coordinates": [10.9685, -74.7813],
    "minAmount": 1000000,
    "maxAmount": 45000000,
    "maxTerm": 36
  },
  {
    "id": "coop-5",
    "name": "Mi Cooperativa",
    "logo": "ğŸ ",
    "averageRate": 1.4,
    "city": "BogotÃ¡",
    "address": "Carrera 15 #93-40",
    "coordinates": [4.6782, -74.0541],
    "minAmount": 500000,
    "maxAmount": 40000000,
    "maxTerm": 60
  },
  {
    "id": "coop-6",
    "name": "Cooperativa Futuro",
    "logo": "ğŸŒŸ",
    "averageRate": 1.7,
    "city": "Cartagena",
    "address": "Bocagrande, Carrera 3 #8-129",
    "coordinates": [10.3997, -75.5516],
    "minAmount": 3000000,
    "maxAmount": 70000000,
    "maxTerm": 84
  }
]
